City_ID,City,Lat,Lng,Max Temp,Humidity,Cloudiness,Wind Speed,Country,Date
0,invercargill,-46.4,168.35,14.45,64,94,5.81,NZ,1723350444
1,port-aux-francais,-49.35,70.2167,4.24,92,100,13.71,TF,1723350445
2,beitbridge,-22.2167,30.0,17.1,27,0,1.11,ZW,1723350446
3,west island,-12.1568,96.8225,28.99,65,67,4.12,CC,1723350447
4,carnarvon,-24.8667,113.6333,22.68,63,0,4.3,AU,1723350449
5,adamstown,-25.066,-130.1015,18.43,64,85,8.39,PN,1723350450
6,fougamou,-1.2154,10.5838,23.01,85,100,0.95,GA,1723350451
7,edinburgh of the seven seas,-37.0676,-12.3116,12.96,89,100,14.48,SH,1723350452
8,yellowknife,62.456,-114.3525,21.29,56,100,5.14,CA,1723350453
9,waitangi,-43.9535,-176.5597,9.9,79,6,2.64,NZ,1723350455
10,barcelos,41.5388,-8.6151,22.73,92,19,0.89,PT,1723350456
11,quellon,-43.1167,-73.6167,6.2,87,100,2.45,CL,1723350457
12,ushuaia,-54.8,-68.3,-0.19,93,0,1.54,AR,1723350458
13,puerto ayora,-0.7393,-90.3518,18.64,99,61,3.89,EC,1723350460
14,grytviken,-54.2811,-36.5092,-11.01,68,67,1.9,GS,1723350461
15,isafjordur,66.0755,-23.124,5.83,90,98,2.52,IS,1723350462
16,chernyshevskiy,63.0128,112.4714,17.18,66,94,2.79,RU,1723350463
17,buala,-8.145,159.5921,24.93,91,100,3.31,SB,1723350465
18,huarmey,-10.0681,-78.1522,16.7,85,52,4.04,PE,1723350466
19,blackmans bay,-43.0167,147.3167,18.18,51,83,0.89,AU,1723350467
20,almeirim,-1.5233,-52.5817,22.51,95,86,1.64,BR,1723350468
21,mangai,-4.05,19.5333,21.88,75,73,0.96,CD,1723350469
22,luderitz,-26.6481,15.1594,13.68,76,86,5.36,NA,1723350471
23,port alfred,-33.5906,26.891,15.1,89,48,0.45,ZA,1723350472
24,prince rupert,54.3161,-130.3201,14.05,97,100,2.06,CA,1723350473
25,lihue,21.9789,-159.3672,27.77,72,75,5.66,US,1723350474
26,zyryanskoye,56.8306,86.6258,14.19,88,100,2.97,RU,1723350476
27,puri,19.8,85.85,31.27,69,100,3.07,IN,1723350477
28,tiksi,71.6872,128.8694,10.97,66,93,9.63,RU,1723350478
29,kaoma,-14.7833,24.8,11.39,38,0,2.12,ZM,1723350479
30,pisco,-13.7,-76.2167,13.34,88,40,1.03,PE,1723350480
31,cooper's town,26.8667,-77.5167,28.87,76,6,3.54,BS,1723350482
32,laguna,38.421,-121.4238,28.71,43,0,2.06,US,1723350210
33,la sarre,48.8002,-79.1996,11.69,97,97,2.6,CA,1723350484
34,port mathurin,-19.6833,63.4167,22.19,66,96,10.68,MU,1723350485
35,yarim,14.298,44.3779,16.05,72,100,2.21,YE,1723350486
36,hawaiian paradise park,19.5933,-154.9731,26.73,80,40,3.6,US,1723350488
37,hermanus,-34.4187,19.2345,12.35,79,11,7.55,ZA,1723350489
38,minas de marcona,-15.2119,-75.1103,9.59,92,43,5.17,PE,1723350490
39,varkaus,62.3153,27.873,13.5,94,22,1.69,FI,1723350491
40,bilibino,68.0546,166.4372,4.04,95,100,3.65,RU,1723350492
41,punta arenas,-53.15,-70.9167,1.06,86,75,3.09,CL,1723350494
42,geraldton,-28.7667,114.6,18.23,88,100,6.17,AU,1723350495
43,ust-nera,64.5667,143.2,17.58,41,68,3.09,RU,1723350496
44,mossel bay,-34.1831,22.146,10.96,88,100,2.13,ZA,1723350497
45,pekalongan,-6.8886,109.6753,32.78,53,36,1.29,ID,1723350498
46,chokwe,-24.5333,32.9833,19.46,46,0,3.38,MZ,1723350500
47,magadan,59.5667,150.8,15.25,82,23,6.72,RU,1723350501
48,sidi slimane,34.2648,-5.926,23.41,73,20,1.07,MA,1723350502
49,papatowai,-46.5619,169.4708,12.81,63,100,5.61,NZ,1723350503
50,olonkinbyen,70.9221,-8.7187,5.15,92,35,3.74,SJ,1723350505
51,alofi,-19.0595,-169.9187,22.94,56,40,6.17,NU,1723350506
52,heyuan,23.7333,114.6833,33.3,61,100,2.08,CN,1723350507
53,polyarnyy,69.1989,33.4478,15.11,73,7,7.41,RU,1723350355
54,uvel'skiy,54.4446,61.3574,13.56,64,100,2.78,RU,1723350509
55,tralee,52.2704,-9.7026,11.59,87,100,2.59,IE,1723350511
56,wailua homesteads,22.0669,-159.378,27.44,79,75,5.66,US,1723350512
57,diu,20.7141,70.9822,28.29,77,96,7.74,IN,1723350513
58,saint-pol-sur-ternoise,50.3811,2.3341,15.11,95,1,0.68,FR,1723350514
59,ende,-8.8432,121.6623,28.56,50,85,3.17,ID,1723350515
60,suntar,62.1444,117.6319,21.72,49,82,2.27,RU,1723350517
61,tazovsky,67.4667,78.7,12.16,71,100,6.23,RU,1723350518
62,ilulissat,69.2167,-51.1,3.01,93,100,1.03,GL,1723350519
63,urangan,-25.3,152.9,20.34,76,0,8.49,AU,1723350520
64,jamestown,42.097,-79.2353,18.17,77,100,3.6,US,1723350522
65,talnakh,69.4865,88.3972,19.43,39,0,1.45,RU,1723350523
66,nikolayevsk-on-amure,53.1406,140.73,22.22,56,91,3.43,RU,1723350524
67,cabo san lucas,22.8909,-109.9124,30.34,80,9,1.57,MX,1723350331
68,vallenar,-28.5708,-70.7581,16.06,42,0,0.77,CL,1723350526
69,dawson creek,55.7666,-120.2362,21.8,43,40,2.57,CA,1723350527
70,jumla,29.2747,82.1838,18.88,78,95,1.5,NP,1723350529
71,port-gentil,-0.7193,8.7815,23.91,85,99,7.66,GA,1723350530
72,othello,46.826,-119.1753,27.19,41,2,2.72,US,1723350531
73,fortuna,40.5982,-124.1573,15.19,92,100,2.57,US,1723350532
74,sola,-13.8833,167.55,25.42,80,40,11.67,VU,1723350534
75,stettler,52.3168,-112.7186,13.19,46,5,4.13,CA,1723350535
76,saacow,1.6279,42.4407,22.8,88,100,3.34,SO,1723350536
77,melilla,35.2937,-2.9383,27.21,83,100,1.54,ES,1723350537
78,susuman,62.7833,148.1667,11.42,87,100,2.77,RU,1723350538
79,labuan,5.2767,115.2417,30.2,79,20,2.57,MY,1723350540
80,puerto natales,-51.7236,-72.4875,2.67,98,100,1.06,CL,1723350541
81,bethel,41.3712,-73.414,21.42,81,0,1.54,US,1723350542
82,iskateley,67.6803,53.1512,16.4,65,47,3.43,RU,1723350543
83,dudinka,69.4058,86.1778,18.51,46,0,4.98,RU,1723350545
84,beihai,21.4833,109.1,31.54,72,100,5.79,CN,1723350546
85,lompoc,34.6391,-120.4579,13.12,95,100,3.6,US,1723350547
86,moroto,2.5345,34.6666,18.52,78,43,0.25,UG,1723350548
87,fort st. john,56.2499,-120.8529,20.94,52,20,3.6,CA,1723350549
88,ancud,-41.8697,-73.8203,7.34,83,99,2.59,CL,1723350551
89,macapa,0.0389,-51.0664,26.99,89,0,3.09,BR,1723350552
90,le port,-20.9373,55.2919,23.0,76,10,4.45,RE,1723350553
91,uturoa,-16.7333,-151.4333,24.05,76,74,5.29,PF,1723350554
92,praia da vitoria,38.7333,-27.0667,22.64,88,40,6.33,PT,1723350557
93,whitehorse,60.7161,-135.0538,21.43,19,75,5.66,CA,1723350558
94,port victoria,0.0939,33.9756,19.7,77,39,3.7,KE,1723350559
95,kapa'a,22.0752,-159.319,28.18,76,75,5.66,US,1723350561
96,saint-pierre,-21.3393,55.4781,22.82,56,75,2.06,RE,1723350563
97,copala,16.65,-98.9833,26.18,81,82,1.35,MX,1723350564
98,mahdia,35.5047,11.0622,24.97,70,0,0.63,TN,1723350565
99,college,64.8569,-147.8028,13.99,71,100,3.09,US,1723350566
100,pacific grove,36.6177,-121.9166,17.34,90,0,3.13,US,1723350567
101,galliano,29.4422,-90.2992,27.78,72,0,3.01,US,1723350569
102,bamyan,34.75,67.25,15.8,43,0,3.76,AF,1723350570
103,revda,56.801,59.9303,13.73,59,7,2.03,RU,1723350571
104,lazaro cardenas,17.9583,-102.2,25.22,88,100,1.58,MX,1723350572
105,aasiaat,68.7098,-52.8699,3.21,97,100,1.21,GL,1723350573
106,qujing,25.4833,103.7833,19.6,80,98,4.22,CN,1723350575
107,hecun,36.5333,114.1111,33.09,34,0,6.8,CN,1723350576
108,petropavlovsk-kamchatsky,53.0452,158.6483,17.33,59,20,6.0,RU,1723350577
109,avellaneda,-29.1176,-59.6583,7.6,59,1,2.98,AR,1723350580
110,lebu,-37.6167,-73.65,7.77,93,28,3.07,CL,1723350582
111,san luis de la loma,17.2706,-100.8939,26.13,85,100,2.09,MX,1723350583
112,plock,52.5468,19.7064,16.69,74,90,2.29,PL,1723350584
113,mexia,31.6799,-96.4822,28.83,74,0,1.79,US,1723350586
114,igarka,67.4667,86.5833,15.2,55,88,6.6,RU,1723350587
115,fale old settlement,-9.3852,-171.2468,28.25,73,3,9.26,TK,1723350588
116,alotau,-10.3069,150.4462,26.01,89,85,2.56,PG,1723350589
117,albany,42.6001,-73.9662,17.45,70,68,0.89,US,1723350291
118,bredasdorp,-34.5322,20.0403,9.74,87,11,4.78,ZA,1723350592
119,xai-xai,-25.0519,33.6442,20.36,54,0,5.04,MZ,1723350593
120,uribia,11.7139,-72.266,29.06,67,68,4.39,CO,1723350594
121,margaret river,-33.95,115.0667,16.64,57,17,7.24,AU,1723350595
122,nemuro,43.3236,145.575,15.5,98,100,7.19,JP,1723350596
123,banos,-1.4,-78.4167,12.04,94,88,0.52,EC,1723350598
124,remire-montjoly,4.9167,-52.2667,24.02,100,100,0.51,GF,1723350599
125,georgetown,5.4112,100.3354,30.97,64,20,4.12,MY,1723350600
126,camrose,53.0168,-112.8353,15.51,63,61,3.94,CA,1723350601
127,puerto lempira,15.2667,-83.7667,26.51,87,15,2.7,HN,1723350603
128,iqaluit,63.7506,-68.5145,10.85,87,75,3.6,CA,1723350604
129,sassandra,4.95,-6.0833,22.42,96,89,2.14,CI,1723350605
130,obo,5.3998,26.4869,20.16,98,99,0.73,CF,1723350606
131,constantia,44.1833,28.65,23.38,58,0,5.76,RO,1723350609
132,east london,-33.0153,27.9116,15.52,82,0,2.57,ZA,1723350610
133,thinadhoo,0.5333,72.9333,28.43,72,28,5.08,MV,1723350611
134,afaahiti,-17.75,-149.2833,24.93,79,100,4.48,PF,1723350612
135,badger,64.8,-147.5333,13.95,73,100,3.09,US,1723350613
136,nuuk,64.1835,-51.7216,3.34,100,100,4.63,GL,1723350615
137,handan,36.6006,114.4678,35.09,31,1,3.92,CN,1723350616
138,kuala belait,4.5833,114.1833,31.09,79,83,3.25,BN,1723350617
139,princeville,45.7668,-61.2985,22.57,95,75,2.06,CA,1723350618
140,maintirano,-18.0667,44.0167,23.56,73,0,2.85,MG,1723350620
141,cockburn town,21.4612,-71.1419,27.42,85,0,8.69,TC,1723350621
142,alice springs,-23.7,133.8833,21.75,26,1,4.63,AU,1723350619
143,la passe,45.5549,-0.8967,21.13,80,7,4.17,FR,1723350623
144,dese,11.1333,39.6333,14.06,86,100,2.17,ET,1723350624
145,feni,23.0186,91.41,29.76,75,100,6.1,BD,1723350626
146,vyazemskiy,47.5378,134.7525,19.29,96,100,2.01,RU,1723350627
147,santa maria del oro,25.9333,-105.3667,20.02,69,100,3.32,MX,1723350628
148,namibe,-15.1961,12.1522,16.92,93,11,1.9,AO,1723350629
149,gizo,-8.103,156.8419,26.14,82,100,5.14,SB,1723350630
150,sechura,-5.5569,-80.8222,18.04,80,82,6.05,PE,1723350632
151,pariaman,-0.619,100.12,27.03,83,80,4.15,ID,1723350633
152,arraial do cabo,-22.9661,-42.0278,19.24,62,29,9.56,BR,1723350634
153,rongelap,11.1635,166.8941,28.6,74,72,5.38,MH,1723350635
154,greenland,43.0362,-70.8328,21.11,72,40,2.57,US,1723350636
155,salinopolis,-0.6136,-47.3561,26.84,79,77,5.46,BR,1723350638
156,paita,-5.0892,-81.1144,17.59,85,37,4.56,PE,1723350639
157,eskisehir,39.7767,30.5206,17.95,77,0,2.57,TR,1723350640
158,ribeira grande,38.5167,-28.7,22.65,82,83,7.15,PT,1723350641
159,luis correia,-2.8792,-41.6669,23.55,84,34,5.1,BR,1723350642
160,avarua,-21.2078,-159.775,22.03,60,20,1.03,CK,1723350644
161,utrik,11.2278,169.8474,28.29,74,99,5.39,MH,1723350645
162,san antonio de pale,-1.4014,5.6325,22.73,84,100,5.1,GQ,1723350646
163,tindouf,27.6711,-8.1474,40.25,11,29,7.2,DZ,1723350647
164,northam,51.0333,-4.2167,18.47,95,4,2.53,GB,1723350649
165,anadyr,64.75,177.4833,14.28,76,40,6.0,RU,1723350650
166,pine lake park,40.0032,-74.2565,23.38,78,40,0.0,US,1723350651
167,la'ie,21.6477,-157.9253,27.98,83,59,2.24,US,1723350652
168,atafu village,-8.5421,-172.5159,27.89,78,3,9.17,TK,1723350653
169,pillaro,-1.1667,-78.5333,9.53,79,87,0.87,EC,1723350655
170,tondano,1.3038,124.9112,29.05,60,29,3.03,ID,1723350656
171,stanley,54.868,-1.6985,10.01,90,0,1.03,GB,1723350657
172,qaqortoq,60.7167,-46.0333,5.98,95,100,2.83,GL,1723350658
173,kamloops,50.6665,-120.3192,26.55,32,20,1.03,CA,1723350660
174,berberati,4.2612,15.7922,20.21,99,91,1.17,CF,1723350661
175,port lincoln,-34.7333,135.8667,16.64,60,14,6.15,AU,1723350622
176,itupiranga,-5.1347,-49.3267,26.18,64,86,1.31,BR,1723350663
177,colonia,50.9333,6.95,18.86,84,5,0.88,DE,1723350664
178,st. john's,47.5649,-52.7093,21.82,97,100,10.8,CA,1723350666
179,barabai,-2.5833,115.3833,34.82,38,7,0.87,ID,1723350667
180,kolwezi,-10.7148,25.4667,14.18,35,3,2.74,CD,1723350668
181,katabu,-4.9333,122.5167,31.9,43,26,4.1,ID,1723350669
182,tabou,4.423,-7.3528,23.62,90,93,3.27,CI,1723350670
183,morehead city,34.7229,-76.726,27.21,92,77,1.79,US,1723350672
184,port elizabeth,-33.918,25.5701,15.16,88,100,4.63,ZA,1723350674
185,saint-philippe,-21.3585,55.7679,22.77,73,35,6.94,RE,1723350675
186,sabang,5.8933,95.3214,27.3,81,100,10.3,ID,1723350676
187,tashtyp,52.7939,89.8983,20.23,59,84,7.01,RU,1723350678
188,enewetak,11.3474,162.3373,28.91,72,99,4.65,MH,1723350679
189,qamdo,31.1667,97.2333,16.22,26,0,1.99,CN,1723350680
190,egilsstadir,65.2653,-14.3948,7.94,92,100,1.41,IS,1723350681
191,klyuchi,52.2667,79.1667,15.81,71,95,4.05,RU,1723350683
192,wynyard,-41.0,145.7167,16.77,71,97,1.34,AU,1723350684
193,kendari,-3.945,122.4989,28.52,59,46,2.92,ID,1723350685
194,khandyga,62.6667,135.6,25.2,41,46,1.25,RU,1723350686
195,tolanaro,-25.0319,46.9987,19.04,77,20,3.09,MG,1723350687
196,nabire,-3.3667,135.4833,27.86,81,13,1.07,ID,1723350689
197,fort bragg,35.139,-79.006,25.91,91,0,1.54,US,1723350690
198,tshabong,-26.05,22.45,9.29,38,4,3.26,BW,1723350691
199,mollendo,-17.0231,-72.0147,14.08,84,55,3.58,PE,1723350692
200,dryden,49.7833,-92.7503,17.16,77,100,2.57,CA,1723350693
201,shakawe,-18.3667,21.85,13.23,26,0,1.83,BW,1723350695
202,cabedelo,-6.9811,-34.8339,21.37,84,37,3.23,BR,1723350696
203,hobyo,5.3505,48.5268,26.04,71,48,9.22,SO,1723350698
204,tucurui,-3.7661,-49.6725,23.28,81,35,2.39,BR,1723350700
205,beau vallon,-20.4189,57.6953,21.22,83,40,5.66,MU,1723350701
206,kalmunai,7.4167,81.8167,28.34,77,100,3.28,LK,1723350702
207,boa vista,2.8197,-60.6733,22.99,94,40,1.03,BR,1723350703
208,lata,40.1629,-8.3327,17.82,82,0,0.69,PT,1723350704
209,kharabali,47.4196,47.2568,27.91,32,38,4.16,RU,1723350706
210,tocopilla,-22.092,-70.1979,16.33,68,95,2.59,CL,1723350707
211,smara,26.7384,-11.6719,25.15,49,2,2.68,EH,1723350708
212,nouadhibou,20.931,-17.0347,20.99,88,28,4.63,MR,1723350709
213,aykhal,66.0,111.5,8.77,73,100,2.89,RU,1723350711
214,vadso,70.0744,29.7487,16.49,77,20,4.12,NO,1723350712
215,sisimiut,66.9395,-53.6735,4.87,95,100,4.35,GL,1723350713
216,sao miguel,-5.4667,-35.3667,21.43,83,31,5.35,BR,1723350714
217,lasem,-6.6922,111.4527,32.24,38,2,1.92,ID,1723350715
218,saldanha,-33.0117,17.9442,12.03,82,78,3.8,ZA,1723350717
219,okhotsk,59.3833,143.3,16.12,83,33,5.33,RU,1723350718
220,dunkwa,5.9656,-1.78,22.76,89,92,1.85,GH,1723350719
221,fisterra,42.9049,-9.2629,19.45,83,0,6.29,ES,1723350720
222,timimoun,29.2639,0.231,30.21,21,0,4.63,DZ,1723350722
223,auki,-8.7676,160.7034,23.67,95,100,1.73,SB,1723350723
224,hamilton,39.1834,-84.5333,18.1,79,0,2.06,US,1723350585
225,kapuskasing,49.4169,-82.4331,11.05,100,100,4.12,CA,1723350725
226,holualoa,19.6228,-155.9522,25.91,82,100,4.12,US,1723350726
227,bukene,-4.2333,32.8833,18.05,49,1,3.56,TZ,1723350728
228,villa gesell,-37.2639,-56.973,9.47,78,24,8.91,AR,1723350729
229,chonchi,-42.6128,-73.8092,6.73,95,95,0.98,CL,1723350730
230,'ain el turk,35.7438,-0.7693,26.38,89,0,2.06,DZ,1723350731
231,richards bay,-28.783,32.0377,18.76,33,42,1.75,ZA,1723350732
232,soio,-6.1349,12.3689,21.72,90,72,3.15,AO,1723350734
233,nantucket,41.2835,-70.0995,21.11,88,20,3.09,US,1723350735
234,puerto aysen,-45.4,-72.7,4.22,99,99,2.01,CL,1723350736
235,mbalmayo,3.5167,11.5,22.18,90,99,2.14,CM,1723350737
236,gadzhiyevo,69.2551,33.3362,16.47,67,9,7.68,RU,1723350739
237,trongsa,27.5026,90.5072,18.6,81,100,2.23,BT,1723350740
238,cedar hills,40.4141,-111.7585,26.27,39,54,2.24,US,1723350741
239,greymouth,-42.4667,171.2,7.89,94,99,1.03,NZ,1723350742
240,kerikeri,-35.2268,173.9474,13.3,71,29,2.67,NZ,1723350743
241,galle,6.0367,80.217,29.4,83,99,0.89,LK,1723350745
242,omdurman,15.6445,32.4777,28.82,63,100,3.73,SD,1723350746
243,kenai,60.5544,-151.2583,9.05,96,100,2.57,US,1723350747
244,kavieng,-2.5744,150.7967,28.05,77,17,2.84,PG,1723350748
245,canico,32.6333,-16.85,23.17,86,40,2.57,PT,1723350750
246,ciudad lazaro cardenas,17.9583,-102.2,24.99,88,99,1.96,MX,1723350752
247,necochea,-38.5473,-58.7368,7.36,75,29,7.45,AR,1723350753
248,nosy varika,-20.5833,48.5333,20.48,88,86,1.72,MG,1723350754
249,nizhnevartovsk,60.9344,76.5531,15.01,82,20,3.0,RU,1723350756
250,morant bay,17.8815,-76.4093,29.79,86,6,4.25,JM,1723350757
251,broome,42.2506,-75.833,15.56,73,19,1.31,US,1723350758
252,saipan,15.1355,145.701,33.39,66,40,3.09,MP,1723350759
253,yefremov,53.1481,38.0992,18.42,79,70,5.43,RU,1723350761
254,choyr,46.3611,108.3611,23.88,35,99,0.56,MN,1723350762
255,vorkuta,67.5,64.0,17.41,57,87,4.63,RU,1723350763
256,bubaque,11.2833,-15.8333,24.81,92,100,7.04,GW,1723350765
257,uttar char fasson,22.2332,90.7132,29.62,75,98,5.96,BD,1723350767
258,catriel,-37.8791,-67.7956,10.14,35,13,10.43,AR,1723350768
259,dwarka,22.2394,68.9678,27.88,82,99,8.82,IN,1723350769
260,karlskrona,56.1616,15.5866,14.25,80,17,7.52,SE,1723350770
261,ol'ginskaya,47.1879,39.9492,21.5,31,60,2.29,RU,1723350772
262,thompson,55.7435,-97.8558,19.09,59,40,1.54,CA,1723350773
263,pampa,35.5362,-100.9599,22.53,94,0,7.2,US,1723350774
264,hasaki,35.7333,140.8333,37.38,75,99,6.38,JP,1723350775
265,stony plain,53.5334,-114.0021,19.86,55,0,1.54,CA,1723350776
266,katsuura,35.1333,140.3,30.31,72,100,7.8,JP,1723350778
267,port augusta,-32.5,137.7667,23.35,30,0,4.56,AU,1723350779
268,djambala,-2.5447,14.7533,18.41,87,58,2.44,CG,1723350780
269,atherton,53.5237,-2.4935,13.03,93,100,0.96,GB,1723350781
270,broken hill,-31.95,141.4333,19.95,44,1,4.7,AU,1723350636
271,ghat,24.9647,10.1728,28.67,27,4,1.67,LY,1723350784
272,birobidzhan,48.8,132.95,16.04,99,100,4.68,RU,1723350786
273,ivankiv,50.9386,29.8943,18.58,68,16,4.95,UA,1723350787
274,tsiombe,-25.3,45.4833,20.6,71,0,1.19,MG,1723350789
275,kodiak,57.79,-152.4072,12.73,94,100,5.14,US,1723350790
276,carutapera,-1.195,-46.02,25.36,82,43,3.31,BR,1723350791
277,gaspar hernandez,19.6289,-70.2811,26.03,89,41,2.12,DO,1723350792
278,melfort,52.8667,-104.6177,14.07,72,19,2.57,CA,1723350793
279,funafuti,-8.5243,179.1942,28.0,89,75,4.63,TV,1723350795
280,puerto baquerizo moreno,-0.9,-89.6,19.57,80,96,5.04,EC,1723350796
281,kolonia town,6.964,158.206,32.06,70,75,4.12,FM,1723350797
282,kavaratti,10.5669,72.642,27.26,83,100,6.51,IN,1723350798
283,kongsberg,59.6652,9.6465,12.87,69,57,2.62,NO,1723350800
284,touros,-5.1989,-35.4608,24.56,83,33,5.59,BR,1723350801
285,flying fish cove,-10.4217,105.6791,25.82,78,100,6.17,CX,1723350802
286,decorah,43.3033,-91.7857,14.51,82,0,1.54,US,1723350803
287,yass,-34.8333,148.9167,18.8,54,6,1.92,AU,1723350804
288,ebon,4.582,168.6964,28.99,66,57,1.68,MH,1723350806
289,ghadamis,30.1337,9.5007,26.79,29,0,4.1,LY,1723350807
290,same,-4.0667,37.7333,18.02,82,36,1.01,TZ,1723350808
291,mahibadhoo,3.7833,72.9667,29.14,73,36,6.73,MV,1723350809
292,clarkston heights-vineland,46.3874,-117.083,26.91,42,9,2.47,US,1723350811
293,cold lake,54.4502,-110.2017,18.97,63,40,2.57,CA,1723350812
294,mangrol,21.1167,70.1167,27.6,82,100,7.89,IN,1723350813
295,pugachev,52.0133,48.8025,20.81,60,41,5.88,RU,1723350814
296,howard springs,-12.497,131.047,32.77,35,14,2.8,AU,1723350815
297,hithadhoo,-0.6,73.0833,28.07,73,17,3.99,MV,1723350818
298,urucara,-2.5364,-57.76,25.97,61,81,0.39,BR,1723350819
299,narasapur,16.45,81.6667,31.92,64,100,2.94,IN,1723350820
300,berezivka,47.2043,30.9078,23.52,53,0,4.23,UA,1723350822
301,eureka,40.8021,-124.1637,15.34,92,39,1.71,US,1723350696
302,anaconda,46.1285,-112.9423,13.36,92,83,2.48,US,1723350824
303,cinarli,41.4723,46.9156,20.09,64,41,1.59,AZ,1723350825
304,nombre de dios,23.85,-104.2333,22.81,52,89,2.82,MX,1723350826
305,sur,22.5667,59.5289,31.0,62,92,0.54,OM,1723350828
306,metu,8.3,35.5833,15.43,95,24,0.94,ET,1723350829
307,atakpame,7.5333,1.1333,20.91,92,100,1.63,TG,1723350830
308,ambagarh chauki,20.7833,80.7167,27.09,77,100,4.0,IN,1723350831
309,chimbote,-9.0853,-78.5783,16.33,86,65,4.3,PE,1723350832
310,buka,40.8108,69.1986,31.77,19,1,2.07,UZ,1723350834
311,emmeloord,52.7108,5.7486,17.77,70,93,1.04,NL,1723350835
312,papao,-17.75,-149.55,25.37,78,100,4.26,PF,1723350836
313,haiku-pauwela,20.9219,-156.3051,26.69,78,40,10.29,US,1723350837
314,longyearbyen,78.2186,15.6401,16.91,55,0,6.69,SJ,1723350838
315,zhaqsy,51.9083,67.3133,16.19,54,88,3.14,KZ,1723350840
316,sinabang,2.4803,96.3801,25.01,91,100,4.72,ID,1723350841
317,slave lake,55.2834,-114.769,17.99,68,0,3.09,CA,1723350842
318,calatayud,41.3535,-1.6432,26.24,29,0,2.13,ES,1723350843
319,saudarkrokur,65.7461,-19.6394,7.48,90,100,0.57,IS,1723350845
320,ust-tsilma,65.441,52.1498,19.09,48,16,1.2,RU,1723350846
321,udachny,66.4167,112.4,13.53,50,85,2.46,RU,1723350847
322,vernon,50.2581,-119.2691,24.74,41,78,0.51,CA,1723350777
323,shache,38.4167,77.2406,34.6,17,18,2.84,CN,1723350849
324,klyetsk,53.0635,26.6321,15.02,76,22,4.48,BY,1723350851
325,nova sintra,14.8667,-24.7167,25.36,81,100,7.79,CV,1723350852
326,biskra,34.8504,5.7281,31.73,25,20,6.17,DZ,1723350853
327,puerto el triunfo,13.2833,-88.55,25.2,92,61,2.66,SV,1723350854
328,lhasa,29.65,91.1,20.86,35,88,1.54,CN,1723350855
329,cruzeiro do sul,-29.5128,-51.9853,8.62,91,0,1.91,BR,1723350858
330,manismata,-2.4667,111.0333,30.59,54,79,2.7,ID,1723350859
331,sault ste. marie,46.5168,-84.3333,14.9,89,100,7.2,CA,1723350860
332,vorgashor,67.5833,63.95,17.16,56,76,5.1,RU,1723350862
333,mana,5.6592,-53.7767,25.48,87,62,2.97,GF,1723350863
334,jianguang,28.1938,115.7836,37.73,44,49,2.61,CN,1723350864
335,baikonur,45.6167,63.3167,30.38,28,46,5.1,KZ,1723350865
336,olyokminsk,60.3736,120.4264,28.74,39,25,1.57,RU,1723350867
337,youssoufia,32.2463,-8.5294,24.89,44,22,2.18,MA,1723350868
338,tamanrasset,22.785,5.5228,24.95,20,0,2.57,DZ,1723350870
339,ocean shores,46.9737,-124.1563,16.09,94,100,5.66,US,1723350871
340,gornyye klyuchi,45.25,133.5,23.88,80,100,1.6,RU,1723350873
341,goz beida,13.95,20.55,25.33,78,95,2.67,TD,1723350874
342,el nido,11.1858,119.3956,30.24,70,100,1.96,PH,1723350875
343,kwang binh,17.4833,106.6,37.46,43,100,4.84,VN,1723350876
344,ryotsu-minato,38.0833,138.4333,28.07,73,17,3.83,JP,1723350878
345,faya-largeau,17.9257,19.1043,31.52,56,95,1.59,TD,1723350879
346,businga,3.3333,20.8833,21.32,97,99,0.98,CD,1723350880
347,nar'yan-mar,67.6713,53.087,17.8,61,56,3.58,RU,1723350881
348,saynshand,44.8824,110.1163,23.98,43,97,5.45,MN,1723350882
349,hastings,50.8552,0.5729,17.66,93,0,1.34,GB,1723350884
350,labrador city,52.9463,-66.9114,15.66,60,100,1.34,CA,1723350885
351,cururupu,-1.8283,-44.8683,24.25,85,33,1.58,BR,1723350886
352,weyburn,49.6668,-103.8511,14.12,67,7,3.6,CA,1723350887
353,saint george's,12.0564,-61.7485,24.82,88,20,0.0,GD,1723350888
354,tobelo,1.7284,128.0095,28.42,74,21,2.68,ID,1723350890
355,tura,25.5198,90.2201,29.09,75,96,2.85,IN,1723350891
356,barra de santo antonio,-9.4047,-35.5072,19.6,91,5,3.34,BR,1723350892
357,agat village,13.3886,144.6585,31.52,79,40,2.57,GU,1723350893
358,vilyuchinsk,52.9306,158.4028,18.15,82,32,2.88,RU,1723350895
359,bay roberts,47.5999,-53.2648,21.7,97,100,5.36,CA,1723350896
360,vrangel',42.7297,133.0839,20.51,79,50,8.34,RU,1723350897
361,tazacorte,28.629,-17.9293,22.54,92,100,5.14,ES,1723350898
362,medicine hat,50.0501,-110.6683,21.28,34,0,4.12,CA,1723350759
363,malmberget,67.1753,20.6549,13.31,94,100,3.6,SE,1723350901
364,dalby,-27.1833,151.2667,22.36,39,14,8.3,AU,1723350902
365,newman,37.3138,-121.0208,29.02,57,38,2.74,US,1723350903
366,berrahal,36.8353,7.4533,22.85,49,26,1.87,DZ,1723350904
367,acarau,-2.8856,-40.12,24.18,87,62,5.37,BR,1723350619
368,lockwood,45.8191,-108.4149,18.94,75,75,2.06,US,1723350908
369,bontang,0.1333,117.5,27.81,77,22,3.07,ID,1723350909
370,cromer,52.9312,1.2989,14.0,81,71,3.49,GB,1723350910
371,longview,32.5007,-94.7405,26.14,78,0,1.54,US,1723350912
372,mount isa,-20.7333,139.5,27.87,24,0,6.69,AU,1723350913
373,saint-etienne,45.4333,4.4,17.14,88,0,0.0,FR,1723350914
374,yaprakli,40.7579,33.7782,17.93,52,50,2.51,TR,1723350915
375,udomlya,57.8794,34.9925,13.51,92,95,3.29,RU,1723350916
376,ola,59.5833,151.2833,15.06,83,50,8.53,RU,1723350918
377,lintong,34.378,109.2089,32.38,30,0,1.41,CN,1723350919
378,hailar,49.2,119.7,24.54,55,100,2.41,CN,1723350920
379,borogontsy,62.6683,131.1683,27.83,35,47,1.14,RU,1723350921
380,al hufuf,25.3646,49.5653,34.19,36,0,0.0,SA,1723350922
381,bereznik,62.8551,42.7072,15.86,71,71,3.16,RU,1723350924
382,sos'va,59.1766,61.8558,14.21,64,97,0.89,RU,1723350925
383,kingston,17.997,-76.7936,29.53,79,20,3.09,JM,1723350779
384,ilovlya,49.3033,43.9796,24.66,39,29,3.46,RU,1723350927
385,nagqu,31.5,92.0,13.8,27,0,2.62,CN,1723350928
386,padang,-0.9492,100.3543,27.03,84,69,2.38,ID,1723350930
387,elko,41.0002,-115.5012,22.86,17,0,1.34,US,1723350931
388,roswell,34.0232,-84.3616,25.95,76,0,1.54,US,1723350932
389,lubao,14.9167,120.55,31.04,58,27,4.84,PH,1723350933
390,taroa,8.7058,171.2275,28.47,71,94,3.32,MH,1723350936
391,akureyri,65.6835,-18.0878,6.96,87,100,0.51,IS,1723350937
392,polyarnyye zori,67.3661,32.4981,13.78,87,74,4.41,RU,1723350938
393,vila franca do campo,37.7167,-25.4333,24.23,91,100,3.0,PT,1723350940
394,kaitong,44.8135,123.15,23.62,84,100,4.21,CN,1723350941
395,talcahuano,-36.7167,-73.1167,7.82,93,40,1.54,CL,1723350942
396,san antonio,29.4241,-98.4936,31.04,70,0,4.12,US,1723350890
397,langepas,61.2544,75.2124,13.56,78,91,5.08,RU,1723350944
398,anatuya,-28.4606,-62.8347,9.98,34,0,2.37,AR,1723350946
399,margate,51.3813,1.3862,18.16,89,0,1.13,GB,1723350947
400,kayangel,8.0823,134.7173,28.79,71,99,3.13,PW,1723350948
401,walvis bay,-22.9575,14.5053,11.16,72,0,1.2,NA,1723350949
402,lekki,6.3607,4.8333,22.78,95,98,1.21,NG,1723350950
403,inderbor,48.55,51.7833,26.58,33,1,6.97,KZ,1723350952
404,moyynkum,44.2914,72.9469,28.15,29,0,1.75,KZ,1723350953
405,kholmsk,47.0511,142.0569,20.61,67,76,2.02,RU,1723350954
406,coquimbo,-29.9533,-71.3436,11.1,76,0,0.51,CL,1723350955
407,qidu,26.7653,119.5472,33.12,69,38,3.39,CN,1723350956
408,medina,24.4686,39.6142,35.24,18,0,1.54,SA,1723350958
409,williams lake,52.1415,-122.1445,24.76,45,20,2.57,CA,1723350959
410,den burg,53.0542,4.7972,17.2,100,100,1.03,NL,1723350960
411,itamaraca,-7.7478,-34.8256,23.03,85,41,1.24,BR,1723350961
412,linxia chengguanzhen,35.6003,103.2064,25.56,32,0,1.01,CN,1723350963
413,kakonko,-3.2828,30.9642,19.87,63,12,0.21,TZ,1723350964
414,balqash,46.8481,74.995,22.33,46,0,3.0,KZ,1723350965
415,togur,58.3631,82.8265,18.15,60,91,3.96,RU,1723350966
416,rawson,-43.3002,-65.1023,6.94,72,50,9.76,AR,1723350968
417,whitecourt,54.1502,-115.6855,19.58,59,20,6.69,CA,1723350843
418,takum,7.2667,9.9833,22.07,97,100,0.99,NG,1723350970
419,menemen,38.6075,27.0694,26.65,64,0,7.72,TR,1723350971
420,soe,-9.8607,124.284,26.91,36,5,4.92,ID,1723350974
421,tchintabaraden,15.8969,5.7985,27.14,70,96,4.48,NE,1723350975
422,sinop,41.7711,34.8709,17.24,53,1,1.52,TR,1723350976
423,alamosa,37.4695,-105.87,14.99,88,0,2.06,US,1723350977
424,new norfolk,-42.7826,147.0587,17.72,56,89,2.45,AU,1723350978
425,kayes,14.0,-11.0,22.87,92,92,4.6,ML,1723350980
426,kargasok,59.0556,80.8572,17.99,56,44,4.13,RU,1723350981
427,kapoeta,4.7717,33.5903,24.77,69,52,1.03,SS,1723350985
428,ierapetra,35.01,25.7353,28.97,42,0,9.39,GR,1723350987
429,piracanjuba,-17.3028,-49.0167,11.94,33,0,1.8,BR,1723350988
430,teruel,40.6667,-0.6667,19.91,34,0,3.49,ES,1723350989
431,curitibanos,-27.2828,-50.5844,2.34,98,1,0.6,BR,1723350991
432,sitka,57.0531,-135.33,16.94,59,40,4.63,US,1723350992
433,wang sai phun,16.3885,100.538,34.92,100,100,3.35,TH,1723350993
434,xining,36.6167,101.7667,23.0,36,0,2.09,CN,1723350994
435,santo antonio do sudoeste,-26.0736,-53.7253,4.79,83,0,0.75,BR,1723350996
436,suva,-18.1416,178.4415,24.71,65,75,6.17,FJ,1723350997
437,trairi,-3.2778,-39.2689,24.08,87,73,4.29,BR,1723350998
438,eten,-6.9081,-79.8642,17.14,82,75,6.69,PE,1723350999
439,happy valley-goose bay,53.3168,-60.3315,14.17,88,20,2.06,CA,1723351000
440,batticaloa,7.7102,81.6924,29.24,71,100,2.92,LK,1723351002
441,cannonvale,-20.2833,148.7,20.33,75,94,7.9,AU,1723351003
442,pedernales,18.0384,-71.744,28.52,70,0,1.58,DO,1723351004
443,mont-dore,-22.2833,166.5833,25.0,99,86,5.95,NC,1723351005
444,bambari,5.768,20.6757,21.35,91,98,1.14,CF,1723351007
445,selfoss,63.9331,-20.9971,10.58,93,89,0.83,IS,1723351008
446,kruisfontein,-34.0033,24.7314,13.27,89,100,4.67,ZA,1723351009
447,uige,-7.6087,15.0613,15.36,97,30,0.88,AO,1723351010
448,zapolyarnyy,69.4154,30.8136,16.6,64,3,4.28,RU,1723351011
449,woking,51.319,-0.5589,17.55,86,100,2.06,GB,1723351013
450,kerema,-7.9631,145.7785,26.43,83,84,3.11,PG,1723351014
451,koster,-25.863,26.8976,9.35,14,0,1.53,ZA,1723351015
452,cronulla,-34.05,151.15,20.04,68,20,5.66,AU,1723351016
453,san luis,-33.295,-66.3356,10.58,32,3,5.3,AR,1723351018
454,dakhla,23.6848,-15.958,19.46,93,13,6.74,EH,1723351019
455,hotan,37.0997,79.9269,32.9,16,84,2.77,CN,1723351020
456,mar del plata,-38.0023,-57.5575,9.49,76,0,4.02,AR,1723351021
457,portland,45.5234,-122.6762,25.04,65,0,2.57,US,1723350560
458,ekibastuz,51.6667,75.3667,16.06,52,100,1.46,KZ,1723351023
459,toliara,-23.35,43.6667,22.49,44,0,2.56,MG,1723351025
460,mayya,61.7333,130.2811,27.62,30,55,0.54,RU,1723351026
461,songjianghe,42.1859,127.479,26.62,64,98,3.33,CN,1723351027
462,prado,-17.3411,-39.2208,21.65,94,53,6.56,BR,1723351028
463,howrah,22.5892,88.3103,29.0,84,75,2.57,IN,1723351030
464,lerwick,60.1545,-1.1494,12.0,90,31,4.2,GB,1723351031
465,recani,31.2846,-4.2688,30.54,20,30,2.37,MA,1723351032
466,yeppoon,-23.1333,150.7333,21.88,80,69,7.8,AU,1723351033
467,ta`u,-14.2336,-169.5144,24.88,79,80,9.83,AS,1723351034
468,nerchinsk,51.9833,116.5833,28.53,31,35,2.83,RU,1723351036
469,peel,-33.3167,149.6333,17.03,59,20,0.19,AU,1723351037
470,arrifes,37.7667,-25.7,23.14,83,40,5.14,PT,1723351038
471,mugia,43.1041,-9.2179,19.53,75,0,3.89,ES,1723351039
472,limassol,34.675,33.0333,27.88,73,0,1.54,CY,1723351041
473,usinsk,65.9939,57.5281,17.52,56,35,3.48,RU,1723351042
474,nguigmi,14.2495,13.1092,25.87,76,100,2.59,NE,1723351043
475,rikaze,29.25,88.8833,16.63,48,97,2.24,CN,1723351044
476,ulundi,-28.3352,31.4162,18.61,20,57,2.93,ZA,1723351045
477,mikkeli,61.6886,27.2723,14.52,100,0,2.57,FI,1723351047
478,santana,-0.0583,-51.1817,27.1,89,0,3.09,BR,1723351048
479,tommot,58.9564,126.2925,27.2,46,75,2.19,RU,1723351049
480,kurumkan,54.3,110.3,29.85,32,30,1.76,RU,1723351050
481,san jose,37.3394,-121.895,21.97,68,40,4.12,US,1723350583
482,oranjemund,-28.55,16.4333,12.59,85,100,1.57,NA,1723351053
483,kone,-21.0595,164.8658,24.99,51,82,4.23,NC,1723351054
484,diego de almagro,-26.3667,-70.05,11.81,30,0,1.3,CL,1723351055
485,naze,28.3667,129.4833,30.51,68,19,0.72,JP,1723351056
486,kikvidze,50.7416,43.0518,20.88,43,51,3.42,RU,1723351058
487,graaff-reinet,-32.2522,24.5308,12.02,44,54,2.68,ZA,1723351059
488,floro,61.5996,5.0328,12.98,71,100,6.69,NO,1723351060
489,zheshart,62.0731,49.5733,17.46,55,98,3.15,RU,1723351061
490,orshanka,56.9161,47.8933,16.7,72,95,2.66,RU,1723351062
491,ulsteinvik,62.3432,5.8487,12.95,90,100,4.47,NO,1723351064
492,barah,13.7,30.3667,27.1,68,65,5.21,SD,1723351065
493,mandalgovi,45.7625,106.2708,22.83,45,33,2.9,MN,1723351066
494,queenstown,-31.8976,26.8753,10.31,40,28,3.17,ZA,1723350670
495,gazli,40.1333,63.45,33.8,19,0,1.34,UZ,1723351068
496,iquique,-20.2208,-70.1431,15.02,77,72,1.77,CL,1723351070
497,gerash,27.6652,54.1371,29.08,41,31,1.41,IR,1723351071
498,sao gabriel da cachoeira,-0.1303,-67.0892,22.91,90,87,0.89,BR,1723351072
499,tahe,52.3333,124.7333,22.23,60,86,1.68,CN,1723351073
500,yuanping,38.7153,112.7575,25.76,51,71,5.58,CN,1723351074
501,keelung,25.1283,121.7419,34.94,69,41,3.19,TW,1723351076
502,callao,-12.0667,-77.15,16.51,88,100,4.12,PE,1723351078
503,nanlong,31.3533,106.0631,31.8,57,33,0.72,CN,1723351079
504,opuwo,-18.0607,13.84,16.79,19,0,2.51,NA,1723351082
505,darwin,-12.4611,130.8418,32.81,26,0,6.17,AU,1723350604
506,rabo de peixe,37.8,-25.5833,23.73,83,40,5.14,PT,1723351084
507,muroto-misakicho,33.2833,134.15,29.06,71,2,3.22,JP,1723351085
508,hammerfest,70.6634,23.6821,19.25,55,95,3.09,NO,1723351087
509,tofol,5.3248,163.0078,28.92,64,87,1.13,FM,1723351089
510,jeddah,21.5169,39.2192,33.92,66,20,2.06,SA,1723351090
511,fedorovka,53.6314,62.7078,16.27,53,100,2.47,KZ,1723351092
512,san mariano,7.5,126.0,29.69,73,76,2.32,PH,1723351093
513,arinos,-15.9169,-46.1056,17.9,61,10,0.82,BR,1723351094
514,la palma,33.8464,-118.0467,24.97,84,0,2.06,US,1723351095
515,i-n-salah,27.1935,2.4607,30.88,19,1,7.58,DZ,1723351096
516,shijiang,27.0819,110.7933,27.87,84,100,2.07,CN,1723351098
517,mwene-ditu,-7.0,23.45,19.67,27,7,2.12,CD,1723351100
518,phanat nikhom,13.4458,101.1844,28.36,72,99,3.09,TH,1723351101
519,torbat-e jam,35.244,60.6225,31.31,19,0,4.96,IR,1723351103
520,loreto,22.2667,-101.9667,16.85,67,100,6.82,MX,1723351104
521,mirny,62.5353,113.9611,18.39,64,71,2.61,RU,1723351105
522,belyy yar,53.6039,91.3903,23.94,57,0,8.0,RU,1723351106
523,yashkul',46.1711,45.3435,30.17,26,1,1.57,RU,1723351107
524,el calafate,-50.3408,-72.2768,0.71,84,35,1.25,AR,1723351109
525,pimenta bueno,-11.6725,-61.1936,17.82,56,30,1.43,BR,1723351110
526,la roda,39.2167,-2.15,19.99,61,0,3.71,ES,1723351111
527,west bay,19.3667,-81.4167,28.36,89,2,5.63,KY,1723351112
528,lyubinskiy,55.1542,72.6925,15.82,65,100,2.73,RU,1723351113
529,san patricio,28.017,-97.5169,31.05,72,4,3.89,US,1723351115
530,willowmore,-33.2926,23.4895,9.99,75,96,3.37,ZA,1723351116
531,petra,30.3222,35.4793,19.8,33,0,4.29,JO,1723351117
532,grand falls-windsor,48.9332,-55.6649,20.28,83,94,1.79,CA,1723351118
533,aswan,24.0934,32.907,32.61,31,0,2.57,EG,1723351120
534,dunedin,-45.8742,170.5036,11.36,69,75,3.73,NZ,1723351121
535,gualaceo,-2.9,-78.7833,15.81,96,96,1.0,EC,1723351122
536,cadale,2.7603,46.3222,25.74,79,62,7.42,SO,1723351123
537,moramanga,-18.9333,48.2,16.3,82,83,0.71,MG,1723351124
538,al jawf,29.5,38.75,26.62,36,53,3.82,SA,1723351126
539,bahia de caraquez,-0.6,-80.4167,23.1,87,98,3.62,EC,1723351127
540,thunder bay,48.4001,-89.3168,12.99,94,100,1.03,CA,1723351128
541,burutu,5.3509,5.5076,24.54,86,76,2.98,NG,1723351130
542,eregli,37.5133,34.0467,22.52,60,0,0.92,TR,1723351132
543,semera,11.501,41.201,27.12,56,95,2.16,ET,1723351133
544,mikuni,36.2171,136.1519,29.95,73,37,6.89,JP,1723351134
545,manggar,-2.8833,108.2667,29.34,66,44,7.64,ID,1723351135
546,'ali sabieh,11.1558,42.7125,29.07,56,56,6.8,DJ,1723351137
547,castillos,-34.1667,-53.8333,7.57,63,95,4.95,UY,1723351138
548,corpus christi,27.8006,-97.3964,31.13,82,4,1.79,US,1723351139
549,bilohirsk,45.05,34.6,25.53,41,0,2.27,UA,1723351140
550,taoudenni,22.6783,-3.9836,35.69,13,98,9.48,ML,1723351141
551,beyneu,45.3167,55.2,28.39,42,0,4.56,KZ,1723351143
552,basco,20.4487,121.9702,29.0,81,11,9.26,PH,1723351145
553,ugoofaaru,5.6667,73.0,27.72,79,100,8.68,MV,1723351146
554,manali,13.1667,80.2667,33.95,69,100,0.45,IN,1723351148
555,general levalle,-34.0147,-63.9241,7.91,39,9,3.82,AR,1723351149
556,masterton,-40.9597,175.6575,11.05,80,6,2.16,NZ,1723351150
557,rio grande,-32.035,-52.0986,7.19,86,25,5.79,BR,1723351151
558,codrington,-38.2667,141.9667,16.57,56,79,3.64,AU,1723351152
559,manokwari,-0.8667,134.0833,28.23,73,34,3.5,ID,1723351154
560,treasure island,27.7692,-82.769,30.1,84,0,1.54,US,1723351155
561,vila velha,-20.3297,-40.2925,18.3,82,0,4.12,BR,1723351156
562,tamarin,-20.3256,57.3706,21.39,86,15,7.28,MU,1723351157
563,kataba,8.4604,-0.7732,23.87,71,95,1.96,GH,1723351158
564,greenville,35.6127,-77.3663,25.09,99,0,0.0,US,1723351160
565,azadshahr,34.7909,48.5707,26.27,19,0,1.03,IR,1723351161
566,weno,7.4515,151.8468,31.97,74,75,2.06,FM,1723351163
567,fernie,49.5,-115.0687,14.11,88,86,1.93,CA,1723350871
568,hurricane,37.1753,-113.2899,33.26,46,52,4.14,US,1723351166
569,diamantino,-14.4086,-56.4461,14.34,36,1,1.65,BR,1723351167
570,karasburg,-28.0167,18.75,10.55,45,100,5.14,NA,1723351168
571,zeya,53.75,127.2667,19.45,86,100,0.92,RU,1723351169
572,chongoyape,-6.6406,-79.3892,20.26,76,91,0.74,PE,1723351171
